[
  { "id": 102, "name": "J.M.D. Moratalaz", "lat": 40.408, "lon": -3.645 },
  { "id": 103, "name": "J.M.D. Villaverde", "lat": 40.347, "lon": -3.712 },
  { "id": 104, "name": "E.D.A.R. La China", "lat": 40.363, "lon": -3.674 },
  { "id": 106, "name": "Centro Mpal. De Acústica", "lat": 40.445, "lon": -3.682 },
  { "id": 107, "name": "J.M.D. Hortaleza", "lat": 40.475, "lon": -3.640 },
  { "id": 108, "name": "Peñagrande", "lat": 40.479, "lon": -3.718 },
  { "id": 109, "name": "J.M.D. Chamberí", "lat": 40.437, "lon": -3.703 },
  { "id": 110, "name": "J.M.D. Centro", "lat": 40.417, "lon": -3.702 },
  { "id": 111, "name": "J.M.D. Chamartín", "lat": 40.462, "lon": -3.677 },
  { "id": 112, "name": "J.M.D. Vallecas 1", "lat": 40.388, "lon": -3.651 },
  { "id": 113, "name": "J.M.D. Vallecas 2", "lat": 40.385, "lon": -3.655 },
  { "id": 114, "name": "Matadero 01", "lat": 40.392, "lon": -3.697 },
  { "id": 115, "name": "Matadero 02", "lat": 40.391, "lon": -3.698 },
  { "id": 4,   "name": "Plaza España", "lat": 40.424, "lon": -3.712 },
  { "id": 8,   "name": "Escuelas Aguirre", "lat": 40.422, "lon": -3.682 },
  { "id": 16,  "name": "Arturo Soria", "lat": 40.452, "lon": -3.637 },
  { "id": 18,  "name": "Farolillo", "lat": 40.395, "lon": -3.732 },
  { "id": 24,  "name": "Casa de Campo", "lat": 40.419, "lon": -3.747 },
  { "id": 35,  "name": "Plaza del Carmen", "lat": 40.419, "lon": -3.703 },
  { "id": 36,  "name": "Moratalaz", "lat": 40.408, "lon": -3.645 },
  { "id": 38,  "name": "Cuatro Caminos", "lat": 40.445, "lon": -3.707 },
  { "id": 39,  "name": "Barrio del Pilar", "lat": 40.478, "lon": -3.712 },
  { "id": 54,  "name": "Ensanche de Vallecas", "lat": 40.373, "lon": -3.612 },
  { "id": 56,  "name": "Plaza Elíptica", "lat": 40.385, "lon": -3.719 },
  { "id": 58,  "name": "El Pardo", "lat": 40.518, "lon": -3.775 },
  { "id": 59,  "name": "Juan Carlos I", "lat": 40.465, "lon": -3.609 }
]